City_ID,City,Lat,Lng,Max Temp,Humidity,Cloudiness,Wind Speed,Country,Date
0,punta arenas,-53.15,-70.9167,13.06,47,0,1.03,CL,1674438643
1,nenjiang,49.1833,125.2167,-31.77,92,85,1.89,CN,1674438644
2,cape town,-33.9258,18.4232,22.43,74,0,3.6,ZA,1674438644
3,vaini,-21.2,-175.2,31.09,74,20,3.09,TO,1674438645
4,mataura,-46.1927,168.8643,17.94,35,12,3.47,NZ,1674438645
5,nelson bay,-32.7167,152.15,24.49,79,79,1.34,AU,1674438645
6,namibe,-15.1961,12.1522,22.34,82,100,2.67,AO,1674438646
7,ulkan,57.243,107.3223,-40.17,96,38,1.58,RU,1674438646
8,umuarama,-23.7664,-53.325,21.76,91,100,1.51,BR,1674438646
9,mar del plata,-38.0023,-57.5575,19.97,82,0,4.92,AR,1674438646
10,ushuaia,-54.8,-68.3,9.81,66,0,2.57,AR,1674438646
11,eston,51.1501,-108.7514,-3.93,84,95,7.91,CA,1674438647
12,georgetown,5.4112,100.3354,27.96,82,20,2.57,MY,1674438647
13,saint-philippe,-21.3585,55.7679,23.77,86,100,1.4,RE,1674438647
14,inzer,54.2167,57.5556,-18.75,98,49,0.94,RU,1674438647
15,rio grande,-32.035,-52.0986,22.45,82,0,2.4,BR,1674438648
16,union city,37.5958,-122.0192,14.07,36,0,6.17,US,1674438648
17,springbok,-29.6643,17.8865,18.62,61,72,1.51,ZA,1674438432
18,kapaa,22.0752,-159.319,26.99,73,75,2.06,US,1674438649
19,albany,42.6001,-73.9662,0.65,90,100,0.75,US,1674438650
20,zhezkazgan,47.8043,67.7144,-18.01,85,20,1.0,KZ,1674438650
21,champerico,14.3,-91.9167,25.91,74,4,3.1,GT,1674438650
22,hobart,-42.8794,147.3294,25.59,52,20,3.6,AU,1674438651
23,rikitea,-23.1203,-134.9692,26.44,76,5,6.78,PF,1674438651
24,baykit,61.67,96.37,-29.49,95,100,1.63,RU,1674438651
25,tiksi,71.6872,128.8694,-31.21,97,100,2.42,RU,1674438651
26,constitucion,-35.3333,-72.4167,15.25,85,0,6.23,CL,1674438652
27,hobe sound,27.0595,-80.1364,23.99,74,0,3.09,US,1674438652
28,cockburn town,21.4612,-71.1419,25.4,76,46,9.32,TC,1674438652
29,komsomolskiy,40.4272,71.7189,-6.88,84,100,0.45,UZ,1674438653
30,codrington,-38.2667,141.9667,23.57,51,28,4.47,AU,1674438653
31,makurdi,7.7411,8.5121,25.29,18,16,1.72,NG,1674438653
32,caravelas,-17.7125,-39.2481,25.74,87,100,4.3,BR,1674438653
33,kindersley,51.4668,-109.1682,-2.99,86,75,7.72,CA,1674438654
34,puerto ayora,-0.7393,-90.3518,23.64,96,45,0.89,EC,1674438654
35,surt,31.2089,16.5887,13.54,33,0,2.82,LY,1674438654
36,hermanus,-34.4187,19.2345,20.45,88,0,3.22,ZA,1674438655
37,turek,52.0155,18.5005,0.9,88,100,3.32,PL,1674438656
38,jamestown,42.097,-79.2353,0.01,75,100,0.45,US,1674438657
39,algiers,36.7525,3.042,3.9,87,20,4.12,DZ,1674438657
40,vila franca do campo,37.7167,-25.4333,14.23,88,22,5.29,PT,1674438658
41,yellowknife,62.456,-114.3525,-28.57,96,52,2.03,CA,1674438658
42,loei,17.4167,101.5,8.65,37,0,0.72,TH,1674438658
43,labuan,5.2767,115.2417,28.2,83,20,1.03,MY,1674438658
44,roma,43.2128,-75.4557,0.6,94,100,3.09,US,1674438659
45,pevek,69.7008,170.3133,-34.84,93,80,1.27,RU,1674438659
46,nikolskoye,59.7035,30.7861,-5.06,94,98,0.99,RU,1674438659
47,busselton,-33.65,115.3333,29.98,35,0,1.0,AU,1674438070
48,sijunjung,-0.6876,100.9537,23.69,93,100,0.46,ID,1674438381
49,ponta do sol,32.6667,-17.1,17.35,55,46,3.69,PT,1674438660
50,kavieng,-2.5744,150.7967,28.57,72,100,5.27,PG,1674438660
51,bethel,41.3712,-73.414,3.3,85,100,1.54,US,1674438661
52,matay,28.419,30.7792,11.13,70,41,4.16,EG,1674438661
53,ust-karsk,52.7011,118.8077,-30.74,92,99,1.09,RU,1674438661
54,dongsheng,39.8161,109.9776,-20.1,72,94,8.53,CN,1674438661
55,kirensk,57.7853,108.1119,-40.76,96,46,1.31,RU,1674438662
56,makakilo city,21.3469,-158.0858,27.18,57,0,6.69,US,1674438662
57,east london,-33.0153,27.9116,22.51,86,100,0.34,ZA,1674438663
58,werda,-25.2667,23.2833,25.0,35,16,2.52,BW,1674438663
59,turayf,31.6725,38.6637,7.14,81,0,4.12,SA,1674438663
60,bengkulu,-3.8004,102.2655,22.92,96,100,2.01,ID,1674438640
61,butaritari,3.0707,172.7902,27.13,75,95,5.36,KI,1674438664
62,airai,-8.9266,125.4092,19.73,72,100,0.48,TL,1674438664
63,naryan-mar,67.6713,53.087,-3.73,96,100,7.1,RU,1674438664
64,lukulu,-14.3707,23.242,18.11,98,100,2.39,ZM,1674438664
65,lorengau,-2.0226,147.2712,28.86,76,70,4.86,PG,1674438664
66,ansalta,42.6894,46.1178,-3.86,40,0,2.39,RU,1674438665
67,atuona,-9.8,-139.0333,26.09,79,100,8.59,PF,1674438666
68,bredasdorp,-34.5322,20.0403,18.52,90,2,2.17,ZA,1674438666
69,gudivada,16.45,80.9833,21.11,86,14,2.2,IN,1674438372
70,talnakh,69.4865,88.3972,-26.1,97,98,0.78,RU,1674438541
71,moville,42.4889,-96.0725,-10.78,99,65,1.76,US,1674438666
72,vaitape,-16.5167,-151.75,25.99,72,89,1.61,PF,1674438667
73,tazovskiy,67.4667,78.7,-30.46,99,20,3.41,RU,1674438667
74,castro,-24.7911,-50.0119,17.56,97,100,0.59,BR,1674438667
75,hamilton,39.1834,-84.5333,1.47,93,100,2.06,US,1674438667
76,valparaiso,-33.0393,-71.6273,18.04,100,0,2.06,CL,1674438668
77,jambi,-1.6,103.6167,24.58,92,100,1.54,ID,1674438634
78,meru,0.0463,37.6559,14.25,87,82,0.99,KE,1674438668
79,bella vista,36.4295,-94.2316,2.93,88,100,3.09,US,1674438669
80,myaundzha,63.0494,147.1858,-28.38,89,100,1.48,RU,1674438670
81,bluff,-46.6,168.3333,13.9,57,66,4.84,NZ,1674438670
82,mount isa,-20.7333,139.5,34.87,12,99,3.6,AU,1674438670
83,geraldton,-28.7667,114.6,24.23,69,75,6.17,AU,1674438671
84,dingle,10.9995,122.6711,26.03,84,100,6.28,PH,1674438671
85,luderitz,-26.6481,15.1594,17.87,88,5,6.65,NA,1674438531
86,bilma,18.6853,12.9164,18.7,15,20,3.01,NE,1674438671
87,necochea,-38.5473,-58.7368,17.13,87,0,3.38,AR,1674438672
88,brae,60.3964,-1.353,8.18,92,100,6.67,GB,1674438672
89,half moon bay,37.4636,-122.4286,14.06,39,0,10.29,US,1674438672
90,adrar,20.5022,-10.0711,15.5,16,0,4.58,MR,1674438673
91,port alfred,-33.5906,26.891,21.21,96,62,3.59,ZA,1674438673
92,sobolevo,54.4299,31.8996,-1.28,93,94,2.84,RU,1674438673
93,kapoeta,4.7717,33.5903,27.51,33,96,3.12,SS,1674438674
94,general roca,-39.0333,-67.5833,28.2,20,1,3.3,AR,1674438675
95,kruisfontein,-34.0033,24.7314,19.94,95,5,1.71,ZA,1674438675
96,kahului,20.8947,-156.47,28.01,64,40,7.72,US,1674438676
97,salalah,17.0151,54.0924,20.06,73,48,1.93,OM,1674438676
98,taksimo,56.3444,114.8794,-31.84,84,100,1.23,RU,1674438676
99,barrow,71.2906,-156.7887,-19.99,77,100,6.17,US,1674438676
100,hasaki,35.7333,140.8333,4.22,88,100,7.18,JP,1674438390
101,monrovia,6.3005,-10.7969,25.86,87,100,3.51,LR,1674438677
102,vao,-22.6667,167.4833,26.33,85,94,8.42,NC,1674438677
103,varzob,38.7737,68.8178,-5.15,81,100,1.64,TJ,1674438678
104,port-gentil,-0.7193,8.7815,27.2,78,67,4.41,GA,1674438678
105,ondangwa,-17.9167,15.95,21.28,78,94,3.28,NA,1674438603
106,batagay-alyta,67.8006,130.4114,-30.27,100,99,0.29,RU,1674438679
107,lompoc,34.6391,-120.4579,13.08,54,0,7.2,US,1674438679
108,narsaq,60.9167,-46.05,-13.65,68,12,3.49,GL,1674438680
109,kodiak,57.79,-152.4072,2.73,93,100,4.63,US,1674438680
110,upernavik,72.7868,-56.1549,-28.1,71,100,5.5,GL,1674438680
111,amberley,39.2048,-84.428,1.14,93,100,0.45,US,1674438681
112,sao filipe,14.8961,-24.4956,20.92,64,24,4.96,CV,1674438422
113,vardo,70.3705,31.1107,-1.01,74,78,10.8,NO,1674438681
114,tagusao,9.1924,117.8141,27.6,70,100,1.95,PH,1674438681
115,kondinskoye,59.6481,67.41,-12.12,94,26,4.06,RU,1674438681
116,iqaluit,63.7506,-68.5145,-20.15,77,100,9.26,CA,1674438682
117,derzhavinsk,51.1,66.3167,-13.96,84,100,4.15,KZ,1674438682
118,tuktoyaktuk,69.4541,-133.0374,-16.0,85,100,3.6,CA,1674438683
119,panjakent,39.4952,67.6093,-6.36,75,100,2.3,TJ,1674438683
120,grootfontein,-19.5667,18.1167,18.76,88,83,1.03,NA,1674438606
121,grindavik,63.8424,-22.4338,0.97,64,75,5.66,IS,1674438526
122,arraial do cabo,-22.9661,-42.0278,23.56,89,97,5.3,BR,1674438684
123,iquique,-20.2208,-70.1431,22.02,81,90,0.53,CL,1674438684
124,hobyo,5.3505,48.5268,24.34,77,25,8.6,SO,1674438684
125,chuy,-33.6971,-53.4616,20.58,81,71,2.34,UY,1674438684
126,saldanha,-33.0117,17.9442,17.03,91,0,5.14,ZA,1674438685
127,broken hill,-31.95,141.4333,29.58,24,2,3.67,AU,1674438670
128,ancud,-41.8697,-73.8203,13.64,88,0,1.42,CL,1674438685
129,zelenoborsk,61.4669,64.0333,-14.24,95,9,2.55,RU,1674438686
130,egvekinot,66.3167,-179.1667,-29.0,81,88,4.92,RU,1674438686
131,tuatapere,-46.1333,167.6833,15.22,52,9,3.85,NZ,1674438686
132,aranos,-24.1333,19.1167,25.4,39,75,5.82,NA,1674438608
133,batangafo,7.3008,18.2833,23.29,21,100,1.98,CF,1674438438
134,emerald,-23.5333,148.1667,28.52,59,39,3.86,AU,1674438642
135,tanete,-3.9443,119.7848,29.46,67,100,2.53,ID,1674438687
136,peterhead,57.5058,-1.7981,5.22,90,100,4.03,GB,1674438687
137,hervey bay,-25.2986,152.8535,26.77,58,1,3.28,AU,1674438403
138,dunmore town,25.5,-76.65,24.63,83,100,6.15,BS,1674438689
139,hilo,19.7297,-155.09,27.93,79,20,4.12,US,1674438689
140,goodlettsville,36.3231,-86.7133,6.21,91,100,3.76,US,1674438689
141,tartus,34.889,35.8866,14.01,63,0,3.46,SY,1674438690
142,port elizabeth,-33.918,25.5701,21.84,92,100,1.03,ZA,1674438690
143,timizart,36.8,4.2667,3.31,95,100,1.33,DZ,1674438691
144,moca,19.5,-70.5,19.03,92,20,3.09,DO,1674438692
145,poya,-21.35,165.15,28.71,75,71,1.74,NC,1674438692
146,soe,-9.8607,124.284,25.83,53,51,2.03,ID,1674438692
147,cidreira,-30.1811,-50.2056,23.48,89,0,2.99,BR,1674438692
148,ilhabela,-23.7781,-45.3581,24.95,89,23,1.96,BR,1674438693
149,coquimbo,-29.9533,-71.3436,16.85,88,20,3.09,CL,1674438693
150,oranjemund,-28.55,16.4333,17.29,91,50,4.04,NA,1674438693
151,port hardy,50.6996,-127.4199,5.1,87,100,6.17,CA,1674438693
152,omboue,-1.5746,9.2618,25.5,85,100,1.77,GA,1674438424
153,olafsvik,64.8945,-23.7142,1.46,53,43,9.79,IS,1674438694
154,mwinilunga,-11.7358,24.4293,15.69,98,93,2.75,ZM,1674438694
155,edd,13.9297,41.6925,23.76,64,64,9.15,ER,1674438694
156,srikakulam,18.3,83.9,19.58,74,15,2.21,IN,1674438444
157,bria,6.5423,21.9863,21.37,26,92,1.46,CF,1674438438
158,rudbar,30.15,62.6,0.27,58,0,3.11,AF,1674438695
159,qaanaaq,77.484,-69.3632,-33.61,68,95,3.36,GL,1674438695
160,salinopolis,-0.6136,-47.3561,24.91,89,62,5.11,BR,1674438696
161,saint anthony,45.0205,-93.218,-7.03,91,100,3.09,US,1674438696
162,sobinka,55.9855,40.0111,-16.68,100,95,1.45,RU,1674438696
163,kurilsk,45.2333,147.8833,-7.82,69,100,6.38,RU,1674438697
164,laguna,38.421,-121.4238,12.1,45,0,9.77,US,1674438697
165,ribeira grande,38.5167,-28.7,16.54,84,2,10.28,PT,1674438697
166,banyo,6.75,11.8167,18.9,28,87,1.48,CM,1674438698
167,shubarshi,48.5872,57.1869,-11.8,70,0,3.2,KZ,1674438698
168,moose jaw,50.4001,-105.5344,1.14,86,100,8.75,CA,1674438698
169,norman wells,65.282,-126.8329,-24.98,84,40,1.03,CA,1674438698
170,andenes,69.3143,16.1194,4.96,75,100,7.72,NO,1674438698
171,bathsheba,13.2167,-59.5167,26.34,78,40,10.29,BB,1674438699
172,gulfport,30.3674,-89.0928,9.03,93,0,0.0,US,1674438699
173,bundaberg,-24.85,152.35,30.68,58,20,0.89,AU,1674438548
174,la ronge,55.1001,-105.2842,-2.86,74,100,7.2,CA,1674438699
175,kutum,14.2,24.6667,13.89,17,0,1.9,SD,1674438699
176,ilulissat,69.2167,-51.1,-11.56,96,100,1.6,GL,1674438700
177,taoudenni,22.6783,-3.9836,15.56,20,0,4.29,ML,1674438700
178,cabo san lucas,22.8909,-109.9124,20.61,77,40,2.06,MX,1674438701
179,kidal,18.4411,1.4078,20.44,15,0,3.37,ML,1674438428
180,san ramon,37.7799,-121.978,13.12,36,0,6.17,US,1674438701
181,tonota,-21.4833,27.4833,22.66,52,100,3.27,BW,1674438436
182,boras,57.721,12.9401,-4.69,100,85,1.07,SE,1674438702
183,haines junction,60.7522,-137.5108,-8.02,97,98,1.7,CA,1674438702
184,faya,18.3851,42.4509,9.06,68,0,0.76,SA,1674438702
185,saint-francois,46.4154,3.9054,-0.18,86,100,4.63,FR,1674438702
186,englehart,47.8169,-79.8664,-1.99,80,100,1.54,CA,1674438702
187,longyearbyen,78.2186,15.6401,2.91,81,75,6.69,SJ,1674438544
188,abu dhabi,24.4667,54.3667,17.01,72,0,2.06,AE,1674438410
189,taltal,-25.4,-70.4833,19.87,83,5,1.14,CL,1674438703
190,catemaco,18.4167,-95.1167,20.41,95,55,2.09,MX,1674438703
191,pesqueira,-8.3578,-36.6964,21.31,90,89,3.61,BR,1674438703
192,phan thiet,10.9333,108.1,28.44,60,11,1.71,VN,1674438604
193,souillac,-20.5167,57.5167,25.21,94,75,1.03,MU,1674438704
194,enshi,30.3,109.4833,6.65,78,99,0.7,CN,1674438704
195,boke,10.9409,-14.2967,19.15,84,0,0.97,GN,1674438417
196,martapura,-3.4167,114.85,26.05,89,20,1.54,ID,1674438705
197,petrokhorion,41.1167,24.8333,12.74,86,92,2.28,GR,1674438705
198,chokurdakh,70.6333,147.9167,-44.11,100,66,1.73,RU,1674438705
199,catumbela,-12.4314,13.5472,25.29,79,100,2.08,AO,1674438705
200,avarua,-21.2078,-159.775,26.03,89,75,1.03,CK,1674438707
201,kaitangata,-46.2817,169.8464,17.48,43,13,5.1,NZ,1674438707
202,nampula,-15.1165,39.2666,21.97,94,75,2.06,MZ,1674438707
203,siirt,37.9326,41.9403,4.14,57,0,1.13,TR,1674438708
204,grand bank,47.0999,-55.765,-2.0,77,6,6.07,CA,1674438708
205,aviles,43.5547,-5.9248,4.4,89,0,2.57,ES,1674438708
206,pacific grove,36.6177,-121.9166,13.82,73,0,11.62,US,1674438708
207,tall kayf,37.0833,41.0667,7.31,49,0,1.11,TR,1674438709
208,manokwari,-0.8667,134.0833,25.15,88,100,1.59,ID,1674438709
209,tarko-sale,64.9225,77.785,-19.53,98,100,4.33,RU,1674438709
210,malakal,9.5334,31.6605,23.46,17,89,3.45,SS,1674438709
211,shenjiamen,29.9576,122.298,9.38,94,100,6.06,CN,1674438710
212,bara,10.3744,10.7288,20.66,20,28,3.12,NG,1674438710
213,berlevag,70.8578,29.0864,4.0,59,88,19.03,NO,1674438710
214,padang,-0.9492,100.3543,24.03,89,100,1.34,ID,1674438353
215,kulykivka,51.3735,31.6466,-1.33,82,41,3.18,UA,1674438711
216,mahebourg,-20.4081,57.7,25.16,94,75,1.03,MU,1674438712
217,ketchikan,55.3422,-131.6461,3.99,93,100,6.17,US,1674438712
218,washougal,45.5826,-122.3534,7.49,86,100,1.34,US,1674438712
219,cabedelo,-6.9811,-34.8339,26.37,81,12,4.72,BR,1674438713
220,ippy,6.2679,21.2247,23.31,23,82,1.82,CF,1674438415
221,samarai,-10.6167,150.6667,29.41,70,80,6.16,PG,1674438714
222,purwokerto,-7.4214,109.2344,27.96,77,97,1.49,ID,1674438178
223,mogwase,-25.185,27.2665,18.92,38,3,2.33,ZA,1674438714
224,lasa,46.6166,10.7002,-2.02,73,98,1.62,IT,1674438714
225,goba,7.0167,39.9833,8.06,73,85,1.69,ET,1674438715
226,victoria,22.2855,114.1577,20.58,85,11,1.79,HK,1674438670
227,agadir,30.4202,-9.5982,8.25,60,0,2.58,MA,1674438715
228,gorontalo,0.5412,123.0595,28.36,75,100,1.48,ID,1674438536
229,jiayuguan,39.8167,98.3,-17.34,56,10,2.64,CN,1674438463
230,new norfolk,-42.7826,147.0587,25.4,31,1,1.28,AU,1674438716
231,bambous virieux,-20.3428,57.7575,25.14,94,75,1.03,MU,1674438716
232,touros,-5.1989,-35.4608,26.43,79,10,4.88,BR,1674438717
233,hithadhoo,-0.6,73.0833,26.9,76,45,2.91,MV,1674438717
234,silver city,32.7701,-108.2803,3.7,41,0,3.09,US,1674438718
235,asau,46.4333,26.4,2.51,96,93,0.87,RO,1674438718
236,las palmas,28.4204,-14.0131,16.44,77,75,7.72,ES,1674438719
237,tabalosos,-6.35,-76.6833,21.11,90,12,1.7,PE,1674438719
238,akureyri,65.6835,-18.0878,-2.04,50,20,3.09,IS,1674438719
239,taybad,34.74,60.7756,-4.46,61,0,1.99,IR,1674438719
240,auburndale,28.0653,-81.7887,22.97,83,20,4.63,US,1674438720
241,vila velha,-20.3297,-40.2925,24.97,94,75,1.03,BR,1674438720
242,takoradi,4.8845,-1.7554,26.36,85,32,3.01,GH,1674438600
243,kitimat,54.0524,-128.6534,1.21,30,100,1.31,CA,1674438721
244,auki,-8.7676,160.7034,29.69,67,83,0.89,SB,1674438721
245,fairbanks,64.8378,-147.7164,-27.02,73,100,0.0,US,1674438723
246,tessalit,20.1986,1.0114,17.53,15,0,4.25,ML,1674438723
247,sfantu gheorghe,45.8667,25.7833,5.15,89,10,2.28,RO,1674438724
248,altus,34.6381,-99.334,6.73,47,0,4.12,US,1674438724
249,mountain home,43.133,-115.6912,-3.29,93,0,8.75,US,1674438724
250,erzin,36.9559,36.2,10.49,62,0,2.51,TR,1674438724
251,huilong,31.8111,121.655,7.74,87,100,6.39,CN,1674438725
252,umba,66.6871,34.3429,-4.55,79,24,5.93,RU,1674438725
253,shache,38.4167,77.2406,-13.76,92,79,3.08,CN,1674438725
254,horsham,51.064,-0.3272,0.91,91,8,0.51,GB,1674438726
255,lubao,14.9167,120.55,28.04,65,19,4.48,PH,1674438726
256,dikson,73.5069,80.5464,-23.32,91,99,11.26,RU,1674438726
257,ariogala,55.2667,23.4667,-2.66,93,9,2.65,LT,1674438727
258,niamey,13.5137,2.1098,23.16,21,0,0.0,NE,1674438727
259,cayenne,4.9333,-52.3333,26.02,78,75,3.6,GF,1674438728
260,road town,18.4167,-64.6167,26.02,69,40,4.63,VG,1674438728
261,bad waldsee,47.9167,9.7667,-1.68,87,77,3.23,DE,1674438728
262,araouane,18.9048,-3.5265,17.96,14,0,4.7,ML,1674438729
263,bitung,1.4451,125.1824,26.47,68,100,1.9,ID,1674438729
264,thompson,55.7435,-97.8558,-9.91,92,100,6.69,CA,1674438730
265,hami,42.8,93.45,-13.09,32,0,4.49,CN,1674438730
266,katsuura,35.1333,140.3,7.75,89,100,7.55,JP,1674438730
267,novaya bryan,51.7159,108.2691,-34.72,90,23,1.06,RU,1674438731
268,mejorada del campo,40.3928,-3.4819,2.07,64,0,2.57,ES,1674438731
269,kontagora,10.3999,5.4695,23.25,19,42,2.09,NG,1674438533
270,dullewala,31.8359,71.4362,8.06,62,0,3.43,PK,1674438732
271,santarem,-2.4431,-54.7083,27.07,83,20,3.6,BR,1674438732
272,gaogou,34.0175,119.1886,5.82,68,98,3.21,CN,1674438732
273,praia da vitoria,38.7333,-27.0667,15.98,72,75,6.7,PT,1674438732
274,bandarbeyla,9.4942,50.8122,22.98,73,55,6.42,SO,1674438733
275,rozivka,46.9385,35.7724,-0.21,82,100,5.35,UA,1674438733
276,orlik,52.5178,99.825,-41.19,90,26,0.92,RU,1674438733
277,yar-sale,66.8333,70.8333,-7.77,95,100,4.17,RU,1674438733
278,mozhaysk,55.5019,36.0272,-5.43,98,25,1.09,RU,1674438734
279,esperance,-33.8667,121.9,24.58,46,0,4.07,AU,1674438734
280,verkhoyansk,67.5447,133.385,-47.97,100,98,0.52,RU,1674438735
281,yeppoon,-23.1333,150.7333,29.88,62,45,4.36,AU,1674438735
282,dasoguz,41.8363,59.9666,-10.03,73,0,4.12,TM,1674438735
283,severo-kurilsk,50.6789,156.125,-8.01,58,98,1.74,RU,1674438736
284,omsukchan,62.5333,155.8,-32.54,97,100,2.97,RU,1674438736
285,mindelo,16.8901,-24.9804,20.75,56,40,6.69,CV,1674438736
286,grass valley,39.2191,-121.0611,7.35,46,0,2.24,US,1674438736
287,wuwei,37.9281,102.6414,-13.27,61,100,4.0,CN,1674438737
288,lavrentiya,65.5833,-171.0,-28.77,94,70,5.37,RU,1674438737
289,gravdal,68.1214,13.5031,5.23,80,70,15.26,NO,1674438737
290,rock sound,24.9,-76.2,24.9,82,56,6.63,BS,1674438738
291,tasiilaq,65.6145,-37.6368,-15.5,59,11,3.17,GL,1674438738
292,inhambane,-23.865,35.3833,26.82,73,87,5.3,MZ,1674438738
293,saskylakh,71.9167,114.0833,-32.49,87,100,1.04,RU,1674438738
294,liberal,37.0431,-100.921,-0.92,69,0,2.57,US,1674438739
295,husavik,66.0449,-17.3389,-5.0,62,20,5.12,IS,1674438739
296,lishan,31.8576,113.2951,7.6,60,95,4.06,CN,1674438739
297,ahuimanu,21.4447,-157.8378,27.84,72,18,1.34,US,1674438739
298,dovolnoye,54.4958,79.6671,-9.66,94,100,6.52,RU,1674438740
299,shingu,33.7333,135.9833,8.62,77,98,2.0,JP,1674438645
300,aasiaat,68.7098,-52.8699,-13.66,96,100,1.23,GL,1674438740
301,provideniya,64.3833,-173.3,-18.94,60,75,13.0,RU,1674438740
302,tevriz,57.509,72.4042,-6.95,93,100,3.81,RU,1674438741
303,capim grosso,-11.3811,-40.0128,23.31,80,100,2.16,BR,1674438741
304,alofi,-19.0595,-169.9187,30.94,66,12,5.14,NU,1674438741
305,khanpur,28.6453,70.6567,9.61,48,0,4.43,PK,1674438741
306,nouakchott,18.0858,-15.9785,15.96,38,0,4.75,MR,1674438741
307,kerouane,9.2667,-9.0167,24.76,48,1,1.77,GN,1674438742
308,portland,45.5234,-122.6762,7.57,84,100,0.89,US,1674438742
309,pujehun,7.3581,-11.7208,22.65,87,21,0.78,SL,1674438743
310,thunder bay,48.4001,-89.3168,-7.01,86,0,2.06,CA,1674438743
311,leh,34.1667,77.5833,-20.78,55,66,0.99,IN,1674438743
312,carnarvon,-24.8667,113.6333,26.39,65,69,6.91,AU,1674438744
313,solnechnyy,50.7214,136.6319,-28.21,94,95,1.97,RU,1674438744
314,acapulco,16.8634,-99.8901,24.17,78,0,2.72,MX,1674438745
315,juruti,-2.1522,-56.0922,23.53,93,86,0.73,BR,1674438746
316,puno,-15.8333,-70.0333,7.96,72,55,0.63,PE,1674438746
317,los llanos de aridane,28.6585,-17.9182,16.86,80,100,9.26,ES,1674438747
318,sitka,57.0531,-135.33,3.94,81,100,10.29,US,1674438747
319,maracacume,-2.0428,-45.9592,22.41,99,23,1.29,BR,1674438747
320,bombay,19.0144,72.8479,20.99,49,5,1.54,IN,1674438539
321,arawa,-6.2132,155.5367,30.71,61,100,2.43,PG,1674438748
322,kaeo,-35.1,173.7833,21.52,69,100,1.78,NZ,1674438748
323,zyryanka,65.75,150.85,-35.61,97,100,4.81,RU,1674438749
324,port shepstone,-30.7414,30.455,24.15,71,100,1.97,ZA,1674438749
325,shakiso,5.75,38.9167,12.31,69,96,1.83,ET,1674438749
326,siocon,7.7061,122.1353,26.9,77,100,3.63,PH,1674438750
327,port blair,11.6667,92.75,23.02,88,40,0.0,IN,1674438535
328,lexington,37.9887,-84.4777,3.0,88,100,3.6,US,1674438751
329,smolenka,52.1352,113.4974,-31.7,51,33,3.0,RU,1674438751
330,armidale,-30.5167,151.65,24.66,45,55,4.38,AU,1674438751
331,mana,5.6592,-53.7767,24.43,87,100,5.65,GF,1674438752
332,bowen,-20.0167,148.2333,27.89,64,9,6.05,AU,1674438752
333,christchurch,-43.5333,172.6333,19.12,67,100,3.09,NZ,1674438196
334,gat,31.61,34.7642,16.33,82,48,0.53,IL,1674438752
335,karakol,42.4907,78.3936,-11.11,55,0,3.38,KG,1674438753
336,zhigansk,66.7697,123.3711,-37.39,94,100,2.28,RU,1674438753
337,qui nhon,13.7667,109.2333,23.18,84,96,2.81,VN,1674438362
338,kologriv,58.8275,44.3178,-21.02,100,100,0.49,RU,1674438754
339,piacabucu,-10.4056,-36.4344,26.09,83,85,5.41,BR,1674438754
340,broome,42.2506,-75.833,0.95,90,100,3.09,US,1674438754
341,kyra,49.5776,111.9753,-31.05,77,100,2.27,RU,1674438754
342,aktash,50.3,87.7333,-26.31,73,88,2.3,RU,1674438755
343,atar,20.5169,-13.0499,18.0,17,0,4.6,MR,1674438529
344,shenkursk,62.1091,42.896,-17.24,100,100,1.87,RU,1674438755
345,vilyuysk,63.7553,121.6247,-30.27,95,100,2.59,RU,1674438755
346,nanortalik,60.1432,-45.2371,-5.64,61,100,2.13,GL,1674438756
347,arandis,-22.4167,14.9667,19.05,77,100,2.59,NA,1674438605
348,carutapera,-1.195,-46.02,24.06,93,32,2.97,BR,1674438756
349,norsup,-16.0667,167.3833,29.34,71,100,0.77,VU,1674438757
350,clyde river,70.4692,-68.5914,-31.87,68,100,11.32,CA,1674438757
351,port talbot,51.5924,-3.7802,5.66,87,100,2.51,GB,1674438757
352,coahuayana,18.7333,-103.6833,22.28,85,40,0.57,MX,1674438758
353,fukue,32.6881,128.8419,11.2,71,75,7.72,JP,1674438758
354,muhos,64.808,25.9931,-9.12,83,15,4.52,FI,1674438758
355,goroka,-6.0834,145.3873,19.59,89,100,1.14,PG,1674438758
356,kadoshkino,54.0257,44.4191,-11.33,92,100,2.59,RU,1674438758
357,byron bay,-28.65,153.6167,27.75,57,26,3.84,AU,1674438551
358,barabash,43.2,131.4833,-14.77,57,34,3.19,RU,1674438759
359,yulara,-25.2406,130.9889,34.05,13,0,5.68,AU,1674438759
360,strezhevoy,60.7333,77.5889,-11.84,96,100,2.77,RU,1674438760
361,nome,64.5011,-165.4064,-18.96,55,0,0.0,US,1674438760
362,alpena,45.0617,-83.4327,-0.5,96,100,0.89,US,1674438760
363,khatanga,71.9667,102.5,-41.79,97,19,1.49,RU,1674438761
364,sur,22.5667,59.5289,18.78,46,0,5.33,OM,1674438761
365,tecoanapa,16.5167,-98.75,24.79,77,0,2.72,MX,1674438762
366,igarka,67.4667,86.5833,-24.8,90,75,5.39,RU,1674438762
367,beringovskiy,63.05,179.3167,-21.92,95,100,6.98,RU,1674438762
368,markova,48.6758,24.4138,3.77,97,100,1.06,UA,1674438762
369,goiatuba,-18.0125,-49.3547,19.85,94,100,2.46,BR,1674438763
370,alice springs,-23.7,133.8833,32.75,40,17,3.6,AU,1674438763
371,belozernyy,45.0643,38.679,0.65,89,0,3.28,RU,1674438764
372,zhanaozen,43.3,52.8,-3.3,88,6,4.94,KZ,1674438764
373,havoysund,70.9963,24.6622,2.13,84,100,6.75,NO,1674438765
374,maldonado,-34.6667,-54.9167,24.57,65,100,2.01,UY,1674438765
375,upington,-28.4478,21.2561,24.21,57,0,2.06,ZA,1674438649
376,yima,34.7381,111.8839,1.75,18,100,5.8,CN,1674438766
377,faanui,-16.4833,-151.75,26.0,72,89,1.68,PF,1674438766
378,novikovo,51.1537,37.8879,-4.51,86,100,3.49,RU,1674438766
379,alta floresta,-9.8756,-56.0861,21.82,97,100,1.43,BR,1674438767
380,yumen,40.2833,97.2,-16.71,47,2,0.64,CN,1674438767
381,sangar,63.9242,127.4739,-46.21,94,99,1.67,RU,1674438767
382,aitape,-3.1374,142.3475,28.8,70,97,1.38,PG,1674438768
383,beroroha,-21.6667,45.1667,23.73,84,100,1.41,MG,1674438768
384,cherskiy,68.75,161.3,-35.82,96,100,1.43,RU,1674438769
385,anadyr,64.75,177.4833,-22.78,63,0,3.0,RU,1674438769
386,jiazi,22.8779,116.067,19.4,78,17,6.6,CN,1674438770
387,svetlyy,54.675,20.1347,-0.97,87,7,3.02,RU,1674438770
388,tondon,10.3667,-13.35,18.93,82,8,0.76,GN,1674438771
389,goderich,43.7501,-81.7165,-0.05,100,72,1.03,CA,1674438771
390,sinnamary,5.3833,-52.95,24.75,86,100,5.96,GF,1674438771
391,fortuna,40.5982,-124.1573,9.43,79,0,4.63,US,1674438771
392,mahajanga,-15.7167,46.3167,26.01,94,75,7.72,MG,1674438772
393,ginir,7.1333,40.7,12.83,57,50,0.89,ET,1674438772
394,nantucket,41.2835,-70.0995,7.08,93,100,6.69,US,1674438772
395,cheremnoye,53.1697,83.2133,-10.67,71,100,9.84,RU,1674438773
396,san luis,-33.295,-66.3356,21.95,59,0,2.68,AR,1674438774
397,pappadatai,39.3133,20.7925,9.9,97,100,1.66,GR,1674438774
398,sivaki,52.6333,126.75,-32.7,82,42,3.88,RU,1674438774
399,shar,49.5886,81.0453,-19.2,72,98,10.36,KZ,1674438774
400,tiznit,29.5833,-9.5,12.28,44,0,1.61,MA,1674438775
401,porto novo,6.4965,2.6036,26.17,84,22,2.66,BJ,1674438775
402,sonoita,31.85,-112.8333,11.4,32,5,1.93,MX,1674438775
403,paamiut,61.994,-49.6678,-7.76,72,100,7.59,GL,1674438775
404,nouadhibou,20.931,-17.0347,16.99,67,0,9.26,MR,1674438776
405,belem de sao francisco,-8.7539,-38.9658,27.49,55,94,5.17,BR,1674438776
406,jacareacanga,-6.2222,-57.7528,22.68,98,100,0.67,BR,1674438776
407,okhotsk,59.3833,143.3,-24.8,82,45,5.47,RU,1674438777
408,bonthe,7.5264,-12.505,24.29,79,90,3.08,SL,1674438777
409,sansare,14.7472,-90.1125,22.48,62,4,1.85,GT,1674438777
410,itarema,-2.9248,-39.9167,25.3,85,75,4.79,BR,1674438777
411,biak,-0.9131,122.8766,27.18,72,100,0.77,ID,1674438778
412,joao pinheiro,-17.7425,-46.1725,20.03,92,100,1.83,BR,1674438778
413,pisco,-13.7,-76.2167,23.03,73,0,4.63,PE,1674438779
414,hammerfest,70.6634,23.6821,5.25,56,0,3.09,NO,1674438779
415,logrono,42.4667,-2.45,3.72,56,0,7.2,ES,1674438779
416,manavalakurichi,8.1333,77.3,24.11,72,79,2.07,IN,1674438780
417,port hawkesbury,45.6169,-61.3485,-1.01,94,75,4.12,CA,1674438780
418,siraha,26.6541,86.2087,14.96,56,0,1.05,NP,1674438661
419,uray,60.1247,64.7758,-12.65,96,11,3.06,RU,1674438781
420,burns lake,54.2331,-125.7533,-4.32,97,100,1.99,CA,1674438781
421,chegem,43.2833,43.1333,-12.93,29,0,3.01,RU,1674438781
422,camabatela,-8.1881,15.375,16.27,99,100,1.09,AO,1674438782
423,kirakira,-10.4544,161.9205,29.24,71,93,2.93,SB,1674438782
424,novellara,44.843,10.7275,3.79,87,100,1.7,IT,1674438782
425,colwyn bay,53.2948,-3.7267,7.89,42,100,3.58,GB,1674438783
426,tateyama,34.9833,139.8667,5.61,87,100,6.99,JP,1674438783
427,nuuk,64.1835,-51.7216,-2.35,90,100,16.74,GL,1674438783
428,payakumbuh,-0.2202,100.6308,22.56,94,100,0.4,ID,1674438784
429,te anau,-45.4167,167.7167,18.87,36,0,1.63,NZ,1674438785
430,marystown,47.1666,-55.1483,-3.12,80,7,4.2,CA,1674438785
431,barcelos,41.5388,-8.6151,6.03,69,6,2.22,PT,1674438785
432,san cristobal,7.7669,-72.225,21.1,75,78,1.0,VE,1674438786
433,erenhot,43.6475,111.9767,-23.78,53,22,4.41,CN,1674438786
434,iralaya,15.0,-83.2333,24.43,84,5,4.39,HN,1674438786
435,saint george,37.1041,-113.5841,3.02,41,100,9.77,US,1674438786
436,palmer,42.1584,-72.3287,1.62,86,100,2.06,US,1674438787
437,garowe,8.4054,48.4845,17.6,76,14,3.63,SO,1674438787
438,udachnyy,66.4167,112.4,-36.64,90,100,1.22,RU,1674438588
439,san patricio,28.017,-97.5169,16.92,38,0,4.19,US,1674438788
440,whitehorse,60.7161,-135.0538,-2.21,86,75,8.23,CA,1674438788
441,bovolone,45.2548,11.1263,7.01,81,100,2.84,IT,1674438789
442,flinders,-34.5833,150.8552,23.92,64,55,3.39,AU,1674438566
443,the valley,18.217,-63.0578,25.05,73,5,8.55,AI,1674438789
444,ifakara,-8.1333,36.6833,21.8,98,100,1.5,TZ,1674438789
445,vestmannaeyjar,63.4427,-20.2734,1.95,56,100,7.38,IS,1674438790
446,santa marta,11.2408,-74.199,29.03,68,20,6.26,CO,1674438790
447,along,28.1667,94.7667,12.56,59,45,0.49,IN,1674438790
448,telimele,10.9167,-13.3333,17.68,70,0,0.92,GN,1674438790
449,camoapa,12.3839,-85.5116,19.97,72,17,2.92,NI,1674438791
450,gizo,-8.103,156.8419,29.16,68,100,3.32,SB,1674438791
451,canberra,-35.2835,149.1281,25.15,51,75,3.6,AU,1674438525
452,san martin,-33.081,-68.4681,29.3,46,4,5.97,AR,1674438792
453,phonhong,18.5007,102.4166,22.1,49,3,0.74,LA,1674438792
454,batticaloa,7.7102,81.6924,25.28,85,74,3.53,LK,1674438792
455,kharp,66.8014,65.8081,-8.62,93,32,3.9,RU,1674438793
456,luwuk,-0.9516,122.7875,27.86,77,100,0.52,ID,1674438793
457,orangeburg,33.4918,-80.8557,9.41,96,100,2.06,US,1674438793
458,zhaotong,27.3167,103.7167,-0.49,72,99,3.13,CN,1674438793
459,torbay,47.6666,-52.7314,-4.35,91,20,7.2,CA,1674438794
460,sungaipenuh,-2.0833,101.3833,19.1,96,100,0.62,ID,1674438795
461,qabaqcol,41.72,46.2647,0.02,55,13,0.76,AZ,1674438795
462,tsiroanomandidy,-18.7667,46.0333,19.28,97,100,2.6,MG,1674438796
463,champoton,19.35,-90.7167,24.28,86,50,3.35,MX,1674438796
464,kaniama,-7.5667,24.1833,18.2,95,100,0.64,CD,1674438796
465,delta,5.5,6.0,25.07,88,4,0.48,NG,1674438796
466,ende,-8.8432,121.6623,29.13,65,75,1.73,ID,1674438797
467,drayton valley,53.2168,-114.9854,-7.6,89,6,2.51,CA,1674438797
468,hirara,24.8,125.2833,20.92,83,75,7.72,JP,1674438684
469,mount gambier,-37.8333,140.7667,26.02,42,10,2.37,AU,1674438797
470,moron,-34.6534,-58.6198,27.77,56,40,2.06,AR,1674438798
471,axim,4.8699,-2.2405,25.91,86,11,2.88,GH,1674438798
472,santa cruz,-17.8,-63.1667,26.7,78,86,4.63,BO,1674438687
473,klaksvik,62.2266,-6.589,6.51,79,100,9.67,FO,1674438799
474,lake cowichan,48.825,-124.0546,3.88,98,100,0.58,CA,1674438799
475,santa barbara,34.7333,-120.0343,10.23,41,0,4.12,US,1674438799
476,afogados da ingazeira,-7.7508,-37.6392,24.77,66,88,3.02,BR,1674438799
477,roald,62.5833,6.1333,7.08,61,75,7.72,NO,1674438800
478,provins,48.5833,3.1667,0.62,89,43,3.5,FR,1674438800
479,manggar,-2.8833,108.2667,27.63,76,100,2.49,ID,1674438800
480,america dourada,-11.4553,-41.4361,20.28,91,32,1.13,BR,1674438801
481,kaduqli,11.0167,29.7167,20.7,14,6,5.11,SD,1674438544
482,mangai,-4.05,19.5333,20.99,96,100,0.93,CD,1674438803
483,panguna,-6.3164,155.4848,27.81,59,100,1.5,PG,1674438803
484,arlit,18.7369,7.3853,20.15,13,0,2.6,NE,1674438803
485,astana,51.1801,71.446,-17.03,71,0,5.0,KZ,1674438804
486,hovd,48.0056,91.6419,-22.77,61,16,0.95,MN,1674438714
487,wick,58.4333,-3.0833,8.03,87,100,5.14,GB,1674438804
488,conceicao do araguaia,-8.2578,-49.2647,22.57,94,66,0.94,BR,1674438804
489,manta,-0.95,-80.7333,26.88,69,0,2.57,EC,1674438805
490,kendari,-3.945,122.4989,30.5,61,100,1.51,ID,1674438793
491,kilindoni,-7.9139,39.6668,26.68,82,100,6.04,TZ,1674438806
492,houma,29.5958,-90.7195,11.67,88,0,1.34,US,1674438806
493,oum hadjer,13.2954,19.6966,22.19,18,67,4.16,TD,1674438806
494,lima,-12.0432,-77.0282,24.39,74,0,4.12,PE,1674438806
495,sao miguel do araguaia,-13.275,-50.1628,21.83,96,100,1.66,BR,1674438807
496,rawson,-43.3002,-65.1023,15.85,71,6,5.87,AR,1674438807
497,ndende,-2.4008,11.3581,22.38,98,98,0.53,GA,1674438807
498,ballina,-28.8667,153.5667,27.79,69,17,4.45,AU,1674438551
499,arman,59.7,150.1667,-24.05,82,12,3.75,RU,1674438808
500,skibbereen,51.55,-9.2667,6.17,92,99,1.55,IE,1674438808
501,floro,61.5996,5.0328,4.98,75,100,9.77,NO,1674438809
502,wright,45.1833,-93.9502,-7.09,93,100,0.0,US,1674438809
503,neuquen,-38.9516,-68.0591,22.94,49,0,1.54,AR,1674438809
504,kapuskasing,49.4169,-82.4331,-5.95,86,100,2.06,CA,1674438810
505,mardin,37.3131,40.7436,3.81,50,0,1.3,TR,1674438810
506,chipinge,-20.1883,32.6236,16.84,89,64,1.33,ZW,1674438810
507,maksatikha,57.797,35.8825,-9.59,98,82,1.33,RU,1674438811
508,tuy hoa,13.0833,109.3,23.82,85,97,3.11,VN,1674438811
509,fuente de oro,3.4594,-73.6128,25.02,54,100,1.75,CO,1674438812
510,lazaro cardenas,17.9583,-102.2,23.32,77,0,1.53,MX,1674438812
511,dinguiraye,11.3,-10.7167,23.11,21,95,2.02,GN,1674438812
512,luba,3.4568,8.5547,24.94,83,86,2.66,GQ,1674438813
513,curanilahue,-37.4667,-73.35,14.25,81,0,2.68,CL,1674438813
514,yaizu,34.8667,138.3333,7.83,81,75,3.6,JP,1674438813
515,aklavik,68.2191,-135.0107,-22.77,92,98,5.24,CA,1674438814
516,talara,-4.5772,-81.2719,24.42,64,0,5.14,PE,1674438814
517,ulladulla,-35.35,150.4667,22.37,61,50,4.25,AU,1674438814
518,parrita,9.5201,-84.3225,24.46,83,30,1.29,CR,1674438814
519,iracoubo,5.4802,-53.2011,24.79,86,99,6.08,GF,1674438815
520,huarmey,-10.0681,-78.1522,21.51,82,96,2.55,PE,1674438815
521,kolo,52.2002,18.6387,1.14,88,100,3.14,PL,1674438816
522,saint-joseph,-21.3667,55.6167,23.21,86,100,1.24,RE,1674438816
523,phulpur,25.55,82.1,16.44,69,81,1.12,IN,1674438816
524,bathurst,-33.4166,149.5806,23.18,57,44,0.45,AU,1674438549
525,viedma,-40.8135,-62.9967,17.98,72,1,4.4,AR,1674438817
526,sorong,-0.8833,131.25,27.63,76,100,1.53,ID,1674438817
527,mayo,38.8876,-76.5119,5.06,92,100,3.6,US,1674438817
528,dandong,40.1292,124.3947,-10.21,62,84,7.7,CN,1674438538
529,ternate,0.8,127.4,27.58,76,97,1.59,ID,1674438818
530,moose factory,51.2585,-80.6094,-7.0,79,81,1.54,CA,1674438818
531,vengurla,15.8667,73.6333,19.27,66,46,2.12,IN,1674438818
532,amarillo,35.222,-101.8313,3.71,53,4,3.36,US,1674438818
533,hay river,60.8156,-115.7999,-14.01,78,75,1.54,CA,1674438819
534,minab,27.1467,57.0801,13.67,31,6,5.75,IR,1674438819
535,lambarene,-0.7001,10.2406,23.88,95,94,1.27,GA,1674438820
536,bogale,16.2833,95.4,22.21,38,69,3.25,MM,1674438821
537,myitkyina,25.3833,97.4,15.15,45,100,0.83,MM,1674438821
538,wagga wagga,-35.1167,147.3667,27.56,48,0,0.45,AU,1674438816
539,tottori,35.5,134.2333,6.04,81,20,3.6,JP,1674438822
540,beloha,-25.1667,45.05,23.92,83,100,7.04,MG,1674438528
541,isangel,-19.55,169.2667,30.06,84,40,1.03,VU,1674438822
542,grenaa,56.4158,10.8783,0.12,86,7,0.67,DK,1674438823
543,biloela,-24.4167,150.5,29.54,51,45,1.9,AU,1674438823
544,mandera,3.9366,41.867,25.45,67,1,5.33,KE,1674438823
545,karratha,-20.7377,116.8463,31.59,48,49,1.32,AU,1674438823
546,maymyo,22.0333,96.4667,16.55,36,89,1.08,MM,1674438824
547,potenza,40.6443,15.8086,2.18,85,100,2.68,IT,1674438824
548,praya,14.9215,-23.5087,20.3,64,20,4.12,CV,1674438824
549,goure,13.9835,10.2704,18.93,11,43,3.76,NE,1674438825
550,jalu,29.0331,21.5482,11.27,48,0,3.43,LY,1674438825
551,guadalupe y calvo,26.1,-106.9667,1.21,35,0,1.92,MX,1674438826
552,nivala,63.9167,24.9667,-8.51,87,6,4.18,FI,1674438826
553,tabou,4.423,-7.3528,25.71,85,69,3.56,CI,1674438827
554,sinegorye,62.0788,150.477,-30.06,98,100,2.69,RU,1674438827
555,shebunino,46.4339,141.8603,-9.9,81,100,3.41,RU,1674438827
556,zaysan,47.4667,84.8667,-25.82,73,0,1.15,KZ,1674438827
557,alyangula,-13.8483,136.4192,26.77,85,100,8.38,AU,1674438828
558,sao joao da barra,-21.6403,-41.0511,23.73,91,98,1.2,BR,1674438828
559,manacapuru,-3.2997,-60.6206,24.1,93,90,1.77,BR,1674438829
560,saint albans,51.75,-0.3333,-0.61,100,8,2.06,GB,1674438829
561,swellendam,-34.0226,20.4417,19.8,83,0,0.93,ZA,1674438829
562,charters towers,-20.1,146.2667,30.74,47,22,5.59,AU,1674438678
563,redwater,33.3582,-94.2544,6.21,65,53,2.68,US,1674438830
